name,latitude,longitude
31140 AUCAMVILLE,43.67103,1.423207
31840 AUSSONNE,43.686029,1.332095
31190 AUTERIVE,43.352779,1.47788
31320 AUZEVILLE-TOLOSANE,43.527278,1.488522
31650 AUZIELLE,43.541121,1.565033
31290 AVIGNONET-LAURAGAIS,43.374836,1.776519
31450 AYGUESVIVES,43.434099,1.592136
31110 BAGNERES-DE-LUCHON,42.791337,0.589937
31130 BALMA,43.609821,1.50338
31450 BAZIEGE,43.45992,1.62097
31870 BEAUMONT-SUR-LEZE,43.381337,1.35298
31850 BEAUPUY,43.649445,1.557032
31700 BEAUZELLE,43.666026,1.374232
31450 BELBERAUD,43.504569,1.574847
31370 BERAT,43.37915,1.173611
31660 BESSIERES,43.797158,1.585005
31700 BLAGNAC,43.637402,1.382904
31620 BOULOC,43.795857,1.415402
31350 BOULOGNE-SUR-GESSE,43.288473,0.648506
31490 BRAX,43.613784,1.242311
31150 BRUGUIERES,43.719393,1.411025
31660 BUZET-SUR-TARN,43.769578,1.62109
31560 CALMONT,43.287222,1.612976
31460 CARAMAN,43.533743,1.75184
31390 CARBONNE,43.31084,1.218949
31320 CASTANET-TOLOSAN,43.508937,1.502173
31780 CASTELGINEST,43.697656,1.438378
31180 CASTELMAUROU,43.684742,1.533041
31620 CASTELNAU-D'ESTRETEFONDS,43.791965,1.363587
31220 CAZERES,43.220384,1.094539
31620 CEPET,43.741991,1.437844
31550 CINTEGABELLE,43.299262,1.539771
31770 COLOMIERS,43.609804,1.32962
31700 CORNEBARRIEU,43.649905,1.31588
31270 CUGNAUX,43.544642,1.34554
31700 DAUX,43.687897,1.27268
31280 DREMIL-LAFAGE,43.593549,1.59958
31600 EAUNES,43.433154,1.360155
31750 ESCALQUENS,43.521148,1.556772
31150 FENOUILLET,43.684445,1.391525
31130 FLOURENS,43.595564,1.55735
31140 FONBEAUZARD,43.67934,1.436297
31470 FONSORBES,43.533733,1.239966
31470 FONTENILLES,43.551374,1.203355
31620 FRONTON,43.843151,1.357918
31270 FROUZINS,43.519716,1.313897
31150 GAGNAC-SUR-GARONNE,43.703288,1.374614
31210 GOURDAN-POLIGNAN,43.07154,0.579931
31380 GRAGNAGUE,43.683932,1.58067
31150 GRATENTOUR,43.721218,1.433433
31330 GRENADE,43.762465,1.289189
31230 L'ISLE-EN-DODON,43.383433,0.836349
31240 L'UNION,43.651266,1.481564
31880 LA SALVETAT-SAINT-GILLES,43.575052,1.264553
31800 LABARTHE-RIVIERE,43.084318,0.670306
31860 LABARTHE-SUR-LEZE,43.457565,1.398999
31620 LABASTIDE-SAINT-SERNIN,43.732382,1.471899
31600 LABASTIDETTE,43.456918,1.246573
31670 LABEGE,43.539924,1.522139
31120 LACROIX-FALGARDE,43.498762,1.426316
31870 LAGARDELLE-SUR-LEZE,43.412969,1.392284
31570 LANTA,43.560894,1.666975
31180 LAPEYROUSE-FOSSAT,43.699214,1.510393
31330 LARRA,43.742251,1.216253
31140 LAUNAGUET,43.661627,1.455216
31410 LAVERNOSE-LACASSE,43.396981,1.248821
31410 LE FAUGA,43.400784,1.292624
31430 LE FOUSSERET,43.289928,1.070111
31490 LEGUEVIN,43.592219,1.231958
31150 LESPINASSE,43.71465,1.383299
31530 LEVIGNAC,43.662608,1.192459
31600 LHERM,43.430484,1.228153
31410 LONGAGES,43.357738,1.218093
31220 MARTRES-TOLOSANE,43.196047,1.002929
31330 MERVILLE,43.723223,1.297923
31190 MIREMONT,43.383003,1.41933
31700 MONDONVILLE,43.664189,1.286335
31280 MONS,43.611516,1.574645
31530 MONTAIGUT-SUR-SAVE,43.68402,1.240117
31380 MONTASTRUC-LA-CONSEILLERE,43.720526,1.591703
31140 MONTBERON,43.71998,1.491094
31310 MONTESQUIEU-VOLVESTRE,43.176762,1.217587
31450 MONTGISCARD,43.453757,1.557816
31850 MONTRABE,43.64325,1.527668
31210 MONTREJEAU,43.087694,0.557446
31600 MURET,43.446371,1.298368
31560 NAILLOUX,43.363597,1.620052
31410 NOE,43.363135,1.268378
31320 PECHABOU,43.503139,1.513228
31140 PECHBONNIEU,43.710184,1.459803
31820 PIBRAC,43.622938,1.260861
31860 PINS-JUSTARET,43.483629,1.392964
31120 PINSAGUEL,43.500239,1.39149
31830 PLAISANCE-DU-TOUCH,43.56546,1.286591
31450 POMPERTUZAT,43.490612,1.518657
31120 PORTET-SUR-GARONNE,43.529131,1.396832
31130 QUINT-FONSEGRIVES,43.583132,1.535964
31520 RAMONVILLE-SAINT-AGNE,43.544359,1.474116
31250 REVEL,43.467366,1.99181
31370 RIEUMES,43.412704,1.118842
31310 RIEUX,43.254275,1.207402
31120 ROQUES,43.504401,1.360511
31120 ROQUETTES,43.496038,1.372253
31180 ROUFFIAC-TOLOSAN,43.664917,1.522337
31140 SAINT-ALBAN,43.695387,1.412961
31540 SAINT-FELIX-LAURAGAIS,43.447808,1.911944
31800 SAINT-GAUDENS,43.120066,0.727303
31180 SAINT-GENIES-BELLEVUE,43.685066,1.484446
31240 SAINT-JEAN,43.663923,1.504448
31790 SAINT-JORY,43.740059,1.365366
31140 SAINT-LOUP-CAMMAS,43.697557,1.480872
31470 SAINT-LYS,43.511695,1.194113
31650 SAINT-ORENS-DE-GAMEVILLE,43.55337,1.531735
31790 SAINT-SAUVEUR,43.748312,1.402746
31410 SAINT-SULPICE-SUR-LEZE,43.32649,1.320862
31570 SAINTE-FOY-D'AIGREFEUILLE,43.554022,1.603325
31470 SAINTE-FOY-DE-PEYROLIERES,43.481167,1.143995
31260 SALIES-DU-SALAT,43.101634,0.961513
31600 SAUBENS,43.479399,1.356163
31840 SEILH,43.689057,1.353347
31600 SEYSSES,43.497332,1.288603
31200 TOULOUSE,43.604082,1.433805
31170 TOURNEFEUILLE,43.576102,1.332752
31810 VENERQUE,43.434507,1.470592
31590 VERFEIL,43.668268,1.68447
31810 VERNET,43.428282,1.422545
31620 VILLAUDRIC,43.832127,1.435197
31290 VILLEFRANCHE-DE-LAURAGAIS,43.401209,1.7192
31340 VILLEMUR-SUR-TARN,43.856816,1.481987
31800 VILLENEUVE-DE-RIVIERE,43.123409,0.66936
31270 VILLENEUVE-TOLOSANE,43.526285,1.347859
